City_ID,City,Lat,Lng,Max Temp,Humidity,Cloudiness,Wind Speed,Country,Date
0,Lebu,-37.6167,-73.65,47.28,87,4,5.1,CL,2024-05-11 01:59:42
1,Port-Aux-Francais,-49.35,70.2167,41.22,71,7,31.12,TF,2024-05-11 01:59:42
2,Vallenar,-28.5708,-70.7581,53.58,75,100,2.73,CL,2024-05-11 01:59:42
3,Puerto Natales,-51.7236,-72.4875,29.44,92,100,3.24,CL,2024-05-11 01:59:42
4,Bodo,67.28,14.405,39.24,89,0,12.66,NO,2024-05-11 01:59:42
5,Ribeira Grande,38.5167,-28.7,64.78,94,98,10.0,PT,2024-05-11 01:59:42
6,Kutulik,53.3508,102.7839,56.62,37,54,12.97,RU,2024-05-11 01:59:42
7,Gunjur,13.2019,-16.7339,75.27,83,0,5.75,GM,2024-05-11 01:59:42
8,Albany,42.6001,-73.9662,51.8,84,100,1.81,US,2024-05-11 01:59:42
9,Ushuaia,-54.8,-68.3,33.46,80,0,10.36,AR,2024-05-11 01:55:17
10,Papatowai,-46.5619,169.4708,50.04,71,89,10.67,NZ,2024-05-11 01:59:43
11,Tsiombe,-25.3,45.4833,66.51,82,0,4.63,MG,2024-05-11 01:59:43
12,Mineiros,-17.5694,-52.5511,64.69,53,28,3.83,BR,2024-05-11 01:59:25
13,Anadyr,64.75,177.4833,28.9,74,75,6.71,RU,2024-05-11 01:59:43
14,Mwingi,-0.9344,38.0601,63.3,93,92,3.22,KE,2024-05-11 01:59:43
15,Grytviken,-54.2811,-36.5092,32.4,88,100,6.49,GS,2024-05-11 01:59:43
16,Adamstown,-25.066,-130.1015,72.59,86,29,15.75,PN,2024-05-11 01:59:43
17,Lihue,21.9789,-159.3672,76.44,75,98,7.96,US,2024-05-11 01:59:43
18,Atafu Village,-8.5421,-172.5159,84.9,73,47,9.42,TK,2024-05-11 01:59:43
19,Edinburgh Of The Seven Seas,-37.0676,-12.3116,62.76,91,100,28.88,SH,2024-05-11 01:59:43
20,Tiksi,71.6872,128.8694,26.62,92,100,10.51,RU,2024-05-11 01:59:43
21,West Island,-12.1568,96.8225,82.38,89,75,14.97,CC,2024-05-11 01:59:44
22,Matadi,-5.8167,13.45,77.25,97,94,2.26,CD,2024-05-11 01:59:44
23,Georgetown,5.4112,100.3354,83.95,91,40,4.61,MY,2024-05-11 01:57:45
24,Susuman,62.7833,148.1667,37.98,73,100,3.0,RU,2024-05-11 01:59:44
25,Palikir - National Government Center,6.9248,158.1611,83.25,83,100,9.22,FM,2024-05-11 01:59:19
26,Lorengau,-2.0226,147.2712,80.28,88,100,13.29,PG,2024-05-11 01:59:44
27,Yellowknife,62.456,-114.3525,46.92,91,75,17.27,CA,2024-05-11 01:59:44
28,Beyneu,45.3167,55.2,59.7,46,99,17.27,KZ,2024-05-11 01:59:44
29,Waitangi,-43.9535,-176.5597,49.82,72,99,5.99,NZ,2024-05-11 01:59:44
30,Rockland,41.1668,-74.0496,50.25,94,95,3.2,US,2024-05-11 01:59:44
31,Puerto Ayora,-0.7393,-90.3518,74.55,97,100,5.66,EC,2024-05-11 01:59:44
32,Mount Gambier,-37.8333,140.7667,62.62,60,40,5.39,AU,2024-05-11 01:59:45
33,Port Mathurin,-19.6833,63.4167,77.58,79,22,23.11,MU,2024-05-11 01:59:45
34,Klyuchi,52.2667,79.1667,56.14,43,100,9.91,RU,2024-05-11 01:59:45
35,Keflavik,64.0049,-22.5624,48.11,100,100,13.8,IS,2024-05-11 01:59:45
36,Sitka,57.0531,-135.33,46.96,67,93,4.25,US,2024-05-11 01:59:45
37,Geraldton,-28.7667,114.6,75.61,69,0,3.44,AU,2024-05-11 01:59:45
38,Inarajan Village,13.2736,144.7484,88.77,80,12,15.86,GU,2024-05-11 01:59:45
39,Gadzhiyevo,69.2551,33.3362,33.6,85,100,16.93,RU,2024-05-11 01:59:45
40,Chibougamau,49.9168,-74.3659,55.02,35,100,4.61,CA,2024-05-11 01:59:45
41,Darnah,32.767,22.6367,63.48,84,0,19.57,LY,2024-05-11 01:59:45
42,Saskatoon,52.1168,-106.6345,76.98,20,75,16.11,CA,2024-05-11 01:59:36
43,Gustavsberg,59.3268,18.3898,40.98,84,100,4.03,SE,2024-05-11 01:59:46
44,Nar'Yan-Mar,67.6713,53.087,19.11,91,33,5.99,RU,2024-05-11 01:59:46
45,Avarua,-21.2078,-159.775,77.05,100,100,4.61,CK,2024-05-11 01:59:46
46,Wailua Homesteads,22.0669,-159.378,75.85,75,97,4.0,US,2024-05-11 01:59:46
47,Saint-Pierre,-21.3393,55.4781,67.68,68,0,8.05,RE,2024-05-11 01:59:46
48,Yulinshi,38.2906,109.7494,63.9,13,1,11.14,CN,2024-05-11 01:59:46
49,Sola,-13.8833,167.55,79.68,63,100,20.22,VU,2024-05-11 01:59:46
50,Polyarnyy,69.1989,33.4478,33.19,85,100,17.43,RU,2024-05-11 01:59:46
51,Badger,64.8,-147.5333,54.99,20,75,14.97,US,2024-05-11 01:59:46
52,Morehead City,34.7229,-76.726,65.05,86,65,4.0,US,2024-05-11 01:58:05
53,Rongelap,11.1635,166.8941,81.16,82,100,16.28,MH,2024-05-11 01:59:46
54,Macapa,0.0389,-51.0664,82.38,83,0,3.44,BR,2024-05-11 01:58:31
55,Talnakh,69.4865,88.3972,24.13,76,23,4.45,RU,2024-05-11 01:59:46
56,Nikolayevsk-On-Amure,53.1406,140.73,52.21,34,51,4.0,RU,2024-05-11 01:59:47
57,Mendaha,-1.0333,103.5833,84.09,76,92,4.38,ID,2024-05-11 01:59:47
58,Iqaluit,63.7506,-68.5145,31.73,93,100,8.05,CA,2024-05-11 01:59:47
59,Flying Fish Cove,-10.4217,105.6791,82.08,83,100,13.8,CX,2024-05-11 01:59:47
60,Mbulu,-3.85,35.5333,55.58,95,92,6.89,TZ,2024-05-11 01:59:47
61,Guerrero Negro,27.9769,-114.0611,61.59,76,52,20.78,MX,2024-05-11 01:59:47
62,Blackmans Bay,-43.0167,147.3167,58.53,90,11,1.01,AU,2024-05-11 01:59:47
63,Crane,31.3974,-102.3501,71.49,53,100,13.89,US,2024-05-11 01:59:47
64,Pisco,-13.7,-76.2167,68.05,77,0,13.8,PE,2024-05-11 01:59:47
65,Ust-Nera,64.5667,143.2,38.95,76,100,4.63,RU,2024-05-11 01:59:48
66,Bozeman,45.6796,-111.0386,66.69,40,0,0.0,US,2024-05-11 01:59:48
67,Mariinsk,56.2139,87.7472,58.01,78,100,9.78,RU,2024-05-11 01:59:48
68,Nemuro,43.3236,145.575,44.28,73,69,10.63,JP,2024-05-11 01:59:48
69,Muravlenko,63.7898,74.523,33.19,86,100,7.16,RU,2024-05-11 01:59:48
70,Uusikaupunki,60.8004,21.4084,36.95,86,0,6.82,FI,2024-05-11 01:59:48
71,Bangolo,7.0069,-7.475,74.84,99,100,2.8,CI,2024-05-11 01:59:48
72,Mejit,10.2753,170.8646,81.73,78,100,16.2,MH,2024-05-11 01:59:48
73,Malango,-2.9627,119.9001,81.45,55,11,4.25,ID,2024-05-11 01:59:48
74,Remire-Montjoly,4.9167,-52.2667,78.84,94,75,6.91,GF,2024-05-11 01:59:48
75,Qarah Bagh,34.9402,61.7759,50.61,83,0,5.5,AF,2024-05-11 01:59:48
76,Lazaro Cardenas,17.9583,-102.2,75.25,73,66,3.74,MX,2024-05-11 01:55:12
77,Cannonvale,-20.2833,148.7,78.58,66,2,15.01,AU,2024-05-11 01:59:48
78,Uturoa,-16.7333,-151.4333,82.49,78,4,11.14,PF,2024-05-11 01:59:49
79,Kenai,60.5544,-151.2583,46.49,46,20,13.8,US,2024-05-11 01:59:49
80,Butwal,27.7006,83.4484,86.58,45,35,6.69,NP,2024-05-11 01:59:49
81,Huarmey,-10.0681,-78.1522,68.47,85,33,7.78,PE,2024-05-11 01:59:49
82,Kone,-21.0595,164.8658,76.26,60,100,5.39,NC,2024-05-11 01:59:49
83,Aasiaat,68.7098,-52.8699,16.14,89,100,3.83,GL,2024-05-11 01:59:49
84,Cody,44.5263,-109.0565,62.82,37,0,5.75,US,2024-05-11 01:59:49
85,Mount Pearl,47.5166,-52.7813,34.14,96,100,11.5,CA,2024-05-11 01:59:49
86,Afaahiti,-17.75,-149.2833,82.27,83,32,15.61,PF,2024-05-11 01:59:49
87,Cururupu,-1.8283,-44.8683,74.43,98,92,0.13,BR,2024-05-11 01:55:41
88,Hermanus,-34.4187,19.2345,57.4,74,10,7.36,ZA,2024-05-11 01:59:49
89,Playa Del Ingles,27.7567,-15.5787,69.55,80,0,6.08,ES,2024-05-11 01:55:10
90,Longyearbyen,78.2186,15.6401,30.04,69,75,25.32,SJ,2024-05-11 01:59:50
91,Acapulco De Juarez,16.8634,-99.8901,74.35,70,44,4.12,MX,2024-05-11 01:57:59
92,Constantia,44.1833,28.65,48.88,67,76,13.53,RO,2024-05-11 01:59:50
93,Margaret River,-33.95,115.0667,65.88,54,0,7.58,AU,2024-05-11 01:59:50
94,Padang,-0.9492,100.3543,84.25,77,98,1.48,ID,2024-05-11 01:59:50
95,Ankpa,7.3706,7.6253,75.09,89,100,4.99,NG,2024-05-11 01:59:50
96,Stanley,54.868,-1.6985,53.62,88,0,1.14,GB,2024-05-11 01:59:50
97,St. John'S,47.5649,-52.7093,34.97,96,100,11.5,CA,2024-05-11 01:57:44
98,Whitehorse,60.7161,-135.0538,46.31,28,100,15.01,CA,2024-05-11 01:59:50
99,San Antonio De Pale,-1.4014,5.6325,79.83,86,91,9.22,GQ,2024-05-11 01:59:51
100,Shimoda,34.6667,138.95,75.11,62,39,10.07,JP,2024-05-11 01:59:51
101,Udachny,66.4167,112.4,19.45,88,100,1.07,RU,2024-05-11 01:59:51
102,Tura,25.5198,90.2201,76.44,75,100,0.2,IN,2024-05-11 01:59:51
103,Yucheng,34.9289,116.4653,68.79,24,100,16.42,CN,2024-05-11 01:59:51
104,Ujae,8.9322,165.7642,80.28,84,100,10.45,MH,2024-05-11 01:59:51
105,Papao,-17.75,-149.55,83.88,79,6,16.87,PF,2024-05-11 01:59:51
106,I-N-Salah,27.1935,2.4607,76.42,15,36,12.91,DZ,2024-05-11 01:59:51
107,Fisterra,42.9049,-9.2629,54.75,86,100,12.41,ES,2024-05-11 01:59:51
108,Tommot,58.9564,126.2925,44.47,60,100,2.13,RU,2024-05-11 01:59:51
109,La Passe,45.5549,-0.8967,61.03,90,9,7.29,FR,2024-05-11 01:59:51
110,Midoun,33.8081,10.9923,62.46,69,5,2.48,TN,2024-05-11 01:59:51
111,Gusinoozyorsk,51.2833,106.5,43.29,53,100,4.23,RU,2024-05-11 01:59:51
112,Bethel,41.3712,-73.414,49.95,83,95,2.13,US,2024-05-11 01:59:52
113,Khartsyz'K,48.0424,38.1473,44.15,44,1,2.84,UA,2024-05-11 01:55:31
114,Hawaiian Paradise Park,19.5933,-154.9731,77.04,85,100,12.66,US,2024-05-11 01:59:52
115,Scottburgh,-30.2867,30.7532,70.81,78,26,25.88,ZA,2024-05-11 01:59:52
116,Nova Sintra,14.8667,-24.7167,74.1,79,12,23.11,CV,2024-05-11 01:59:52
117,Tolanaro,-25.0319,46.9987,71.67,88,20,11.5,MG,2024-05-11 01:59:52
118,Ilulissat,69.2167,-51.1,14.36,88,100,3.96,GL,2024-05-11 01:59:52
119,Khandyga,62.6667,135.6,38.91,52,100,4.12,RU,2024-05-11 01:59:52
120,Bilibino,68.0546,166.4372,33.3,78,100,2.21,RU,2024-05-11 01:59:52
121,Santander Jimenez,24.2167,-98.4667,82.76,71,37,11.86,MX,2024-05-11 01:59:52
122,El Calafate,-50.3408,-72.2768,31.08,69,70,3.71,AR,2024-05-11 01:57:22
123,Kodiak,57.79,-152.4072,38.32,98,100,26.93,US,2024-05-11 01:59:53
124,Port Maria,18.3685,-76.8895,85.96,87,100,7.29,JM,2024-05-11 01:59:53
125,Taltal,-25.4,-70.4833,60.35,82,100,0.49,CL,2024-05-11 01:59:53
126,Bredasdorp,-34.5322,20.0403,53.04,78,8,7.34,ZA,2024-05-11 01:59:53
127,Lukolela,-1.0605,17.1821,73.33,85,99,2.68,CD,2024-05-11 01:59:53
128,Cole Harbour,44.6724,-63.4751,43.99,95,98,3.0,CA,2024-05-11 01:59:53
129,Santa Cruz,-17.8,-63.1667,76.46,94,20,11.5,BO,2024-05-11 01:59:14
130,Al Bardiyah,31.7561,25.0865,62.31,85,0,18.79,LY,2024-05-11 01:59:53
131,Vorgashor,67.5833,63.95,16.81,92,94,5.48,RU,2024-05-11 01:59:53
132,Madera,37.1666,-119.8343,86.43,37,100,5.17,US,2024-05-11 01:59:53
133,Batticaloa,7.7102,81.6924,81.75,83,100,2.57,LK,2024-05-11 01:59:53
134,Toliara,-23.35,43.6667,70.81,68,0,6.82,MG,2024-05-11 01:59:53
135,Kirovskiy,45.0917,133.5136,60.08,70,100,6.08,RU,2024-05-11 01:59:54
136,Thompson,55.7435,-97.8558,59.16,38,75,3.44,CA,2024-05-11 01:59:54
137,Talaja,21.35,72.05,84.09,60,0,3.8,IN,2024-05-11 01:59:54
138,Ketchikan,55.3422,-131.6461,55.35,62,0,11.5,US,2024-05-11 01:59:04
139,Tirumullaivasal,11.2333,79.8333,86.94,68,100,6.26,IN,2024-05-11 01:59:54
140,Vilyuchinsk,52.9306,158.4028,43.07,77,100,5.37,RU,2024-05-11 01:59:54
141,Kuraymah,18.55,31.85,84.7,10,26,6.55,SD,2024-05-11 01:59:54
142,Faya-Largeau,17.9257,19.1043,90.91,14,1,19.22,TD,2024-05-11 01:59:54
143,Naigarhi,24.7833,81.7833,88.2,36,87,5.08,IN,2024-05-11 01:59:54
144,Moratalla,38.1893,-1.8918,58.89,49,100,4.29,ES,2024-05-11 01:59:54
145,Xilin Hot,43.9667,116.0333,47.43,47,95,25.55,CN,2024-05-11 01:59:55
146,Al Mindak,20.1588,41.2834,67.6,61,2,2.06,SA,2024-05-11 01:59:55
147,Cabugao,17.7931,120.4578,88.9,58,0,8.32,PH,2024-05-11 01:59:55
148,Olonkinbyen,70.9221,-8.7187,26.82,67,100,5.37,SJ,2024-05-11 01:59:55
149,Illapel,-31.6308,-71.1653,47.55,82,87,2.64,CL,2024-05-11 01:55:14
150,Okhotsk,59.3833,143.3,32.31,99,100,4.09,RU,2024-05-11 01:59:55
151,Dudinka,69.4058,86.1778,15.67,91,33,10.0,RU,2024-05-11 01:59:55
152,Corbelia,-24.7989,-53.3067,72.73,58,100,1.88,BR,2024-05-11 01:59:55
153,Anar Darah,32.7587,61.654,60.62,52,0,12.71,AF,2024-05-11 01:59:55
154,Shirgaon,19.7,72.7,82.76,74,4,4.97,IN,2024-05-11 01:59:55
155,Kourou,5.1552,-52.6478,78.85,94,100,4.09,GF,2024-05-11 01:59:55
156,Rodolfo Sanchez Taboada,31.7167,-116.5667,63.1,69,30,3.0,MX,2024-05-11 01:59:55
157,Cabedelo,-6.9811,-34.8339,77.67,74,54,8.61,BR,2024-05-11 01:59:56
158,Takai,11.5833,9.1167,83.59,53,94,9.93,NG,2024-05-11 01:59:56
159,Tual,-5.6667,132.75,82.51,80,10,19.57,ID,2024-05-11 01:59:56
160,Tazovsky,67.4667,78.7,30.99,99,100,7.74,RU,2024-05-11 01:59:56
161,Qaqortoq,60.7167,-46.0333,32.36,89,6,6.22,GL,2024-05-11 01:59:56
162,East London,-33.0153,27.9116,64.24,69,14,17.6,ZA,2024-05-11 01:59:56
163,Daru,-9.0763,143.2092,81.52,83,17,12.97,PG,2024-05-11 01:59:56
164,Fort Stockton,30.894,-102.8793,73.45,51,100,4.61,US,2024-05-11 01:58:33
165,Grand Baie,-20.0182,57.5802,75.67,73,3,20.04,MU,2024-05-11 01:59:56
166,Luderitz,-26.6481,15.1594,57.25,53,0,11.25,NA,2024-05-11 01:59:56
167,Puerto Real,36.5282,-6.1901,60.96,44,0,2.3,ES,2024-05-11 01:59:57
168,Sivasli,38.4994,29.6836,53.22,81,100,1.12,TR,2024-05-11 01:59:57
169,Tralee,52.2704,-9.7026,48.61,86,81,4.65,IE,2024-05-11 01:59:57
170,Butterworth,5.3991,100.3638,84.06,91,40,4.61,MY,2024-05-11 01:59:57
171,Bei'An,24.5399,109.533,80.82,78,97,11.86,CN,2024-05-11 01:59:57
172,Ugoofaaru,5.6667,73.0,84.78,71,100,2.75,MV,2024-05-11 01:59:57
173,Tosontsengel,48.7567,98.2839,55.15,29,98,3.74,MN,2024-05-11 01:59:57
174,Selfoss,63.9331,-20.9971,49.05,98,100,9.19,IS,2024-05-11 01:59:57
175,Cidade Velha,14.9167,-23.6167,75.67,64,20,10.36,CV,2024-05-11 01:59:57
176,Lamin,13.3522,-16.4339,75.31,77,10,9.44,GM,2024-05-11 01:59:57
177,Vilyuysk,63.7553,121.6247,30.99,50,100,8.99,RU,2024-05-11 01:59:57
178,Mersa Matruh,31.3525,27.2453,64.6,72,0,13.8,EG,2024-05-11 01:59:58
179,Fale Old Settlement,-9.3852,-171.2468,84.94,75,98,8.79,TK,2024-05-11 01:59:58
180,Pandaan,-7.6527,112.6875,85.5,62,16,3.27,ID,2024-05-11 01:59:58
181,Utrik,11.2278,169.8474,81.18,81,100,16.58,MH,2024-05-11 01:59:58
182,Codrington,-38.2667,141.9667,64.78,64,4,7.38,AU,2024-05-11 01:59:58
183,Soure,-0.7167,-48.5233,83.82,89,100,6.35,BR,2024-05-11 01:59:58
184,Anaconda,46.1285,-112.9423,67.19,64,13,2.73,US,2024-05-11 01:59:08
185,Saipan,15.1355,145.701,92.1,58,75,19.57,MP,2024-05-11 01:59:58
186,Rakops,-21.0167,24.3333,62.83,32,0,4.61,BW,2024-05-11 01:59:58
187,Tottori,35.5,134.2333,73.47,49,20,13.8,JP,2024-05-11 01:57:41
188,Punta Arenas,-53.15,-70.9167,33.91,86,0,9.22,CL,2024-05-11 01:59:59
189,Aliwal North,-30.6937,26.7114,55.65,52,0,4.21,ZA,2024-05-11 01:59:59
190,San Pablo Villa De Mitla,16.9167,-96.4,73.4,35,38,6.35,MX,2024-05-11 01:59:59
191,Karaton,-6.3424,106.1045,84.69,68,92,1.07,ID,2024-05-11 01:59:59
192,Fort St. John,56.2499,-120.8529,69.69,18,40,20.71,CA,2024-05-11 01:59:02
193,Uliastay,47.7417,96.8444,58.62,21,47,2.06,MN,2024-05-11 01:59:59
194,Callao,-12.0667,-77.15,71.73,77,0,14.97,PE,2024-05-11 01:58:05
195,Poso,-1.3959,120.7524,86.47,63,48,2.55,ID,2024-05-11 01:59:59
196,Kailua-Kona,19.6406,-155.9956,79.29,86,84,3.0,US,2024-05-11 01:59:59
197,Puerto Armuelles,8.2833,-82.8667,80.1,77,100,4.0,PA,2024-05-11 01:59:59
198,Minas De Marcona,-15.2119,-75.1103,56.79,86,68,11.12,PE,2024-05-11 01:59:59
199,Queenstown,-31.8976,26.8753,48.4,68,0,2.8,ZA,2024-05-11 01:59:59
200,Uryupinsk,50.8047,42.0138,50.61,60,100,13.33,RU,2024-05-11 02:00:00
201,Carahue,-38.7,-73.1667,42.51,95,46,1.81,CL,2024-05-11 02:00:00
202,Las Varillas,-31.8721,-62.7195,50.32,67,100,6.42,AR,2024-05-11 01:56:00
203,Hamilton,39.1834,-84.5333,58.77,71,20,1.99,US,2024-05-11 01:56:06
204,Cabo San Lucas,22.8909,-109.9124,80.62,63,35,11.07,MX,2024-05-11 01:55:57
205,Lagunillas,10.1301,-71.2595,80.87,84,100,8.37,VE,2024-05-11 02:00:00
206,Pawayan,28.0667,80.1,89.02,35,1,6.73,IN,2024-05-11 02:00:00
207,Invercargill,-46.4,168.35,50.02,93,80,7.0,NZ,2024-05-11 02:00:00
208,Hami,42.8,93.45,79.27,11,39,4.47,CN,2024-05-11 02:00:00
209,Kapuskasing,49.4169,-82.4331,59.09,35,75,3.44,CA,2024-05-11 02:00:01
210,Ust-Tsilma,65.441,52.1498,21.43,94,58,4.07,RU,2024-05-11 02:00:01
211,Usogorsk,63.4106,48.6872,20.66,97,76,4.41,RU,2024-05-11 02:00:01
212,Colonia,50.9333,6.95,55.81,85,0,1.14,DE,2024-05-11 02:00:01
213,Pocatello,42.8713,-112.4455,66.11,38,0,8.05,US,2024-05-11 01:58:07
214,Mithi,24.7318,69.7981,81.73,77,0,10.04,PK,2024-05-11 02:00:02
215,Bardai,11.65,7.2333,79.97,61,74,11.9,NG,2024-05-11 02:00:04
216,Rio Preto Da Eva,-2.6994,-59.6997,75.49,99,100,2.55,BR,2024-05-11 02:00:05
217,Nelson Bay,-32.7167,152.15,64.99,96,100,1.01,AU,2024-05-11 02:00:05
218,Port Moresby,-9.4431,147.1797,87.22,70,40,5.75,PG,2024-05-11 02:00:06
219,Upper Grand Lagoon,30.1633,-85.7408,74.08,93,0,3.44,US,2024-05-11 02:00:06
220,Limassol,34.675,33.0333,66.27,77,20,5.75,CY,2024-05-11 02:00:07
221,Nouna,12.7333,-3.8667,95.43,25,1,10.65,BF,2024-05-11 02:00:07
222,Kuta,-8.7233,115.1723,84.15,88,20,10.36,ID,2024-05-11 01:58:44
223,Namtsy,62.7161,129.6658,38.14,39,100,6.44,RU,2024-05-11 02:00:07
224,Port Isabel,26.0734,-97.2086,83.01,86,100,15.01,US,2024-05-11 02:00:08
225,Shiyan,32.6475,110.7781,67.17,64,100,5.5,CN,2024-05-11 02:00:08
226,St Ives,50.2086,-5.4875,55.72,85,70,9.42,GB,2024-05-11 02:00:08
227,Sampit,-2.5333,112.95,86.94,69,49,3.83,ID,2024-05-11 02:00:08
228,Cotia,-23.6704,-46.9472,72.82,79,100,1.16,BR,2024-05-11 02:00:08
229,Kez,57.8979,53.7152,31.24,91,100,7.29,RU,2024-05-11 02:00:08
230,Salto,-31.3833,-57.9667,55.87,96,100,4.0,UY,2024-05-11 01:55:45
231,Jamestown,42.097,-79.2353,49.59,81,0,6.91,US,2024-05-11 01:55:21
232,Sainte-Anne-Des-Monts,49.124,-66.4924,40.87,87,4,3.44,CA,2024-05-11 02:00:09
233,Masterton,-40.9597,175.6575,56.88,48,69,7.99,NZ,2024-05-11 02:00:09
234,Lagos,6.5833,3.75,79.79,87,44,3.62,NG,2024-05-11 01:57:56
235,Victoria,22.2855,114.1577,85.42,83,100,7.0,HK,2024-05-11 01:57:33
236,Kovdor,67.5662,30.4758,28.0,92,99,12.46,RU,2024-05-11 02:00:09
237,Cambria,35.5641,-121.0808,68.41,84,33,3.49,US,2024-05-11 02:00:09
238,Xining,36.6167,101.7667,52.12,63,100,2.59,CN,2024-05-11 02:00:09
239,Nellore,14.4333,79.9667,87.67,63,67,11.61,IN,2024-05-11 02:00:09
240,Richards Bay,-28.783,32.0377,73.8,80,0,16.98,ZA,2024-05-11 01:57:34
241,Bamboo Flat,11.7,92.7167,89.69,70,40,6.91,IN,2024-05-11 02:00:10
242,Waiuku,-37.25,174.75,61.7,62,0,5.46,NZ,2024-05-11 02:00:10
243,Louisville,38.2542,-85.7594,61.05,71,0,0.0,US,2024-05-11 01:57:33
244,Yuxia,34.0615,108.6291,70.41,24,100,3.33,CN,2024-05-11 02:00:10
245,Moranbah,-22.0016,148.0466,78.46,54,55,13.47,AU,2024-05-11 02:00:10
246,Vershino-Darasunskiy,52.35,115.5167,34.88,94,100,8.95,RU,2024-05-11 02:00:10
247,Saint-Leu,-21.15,55.2833,74.23,65,4,4.32,RE,2024-05-11 02:00:10
248,Butembo,0.15,29.2833,57.97,95,93,3.56,CD,2024-05-11 02:00:10
249,Island Harbour,50.724,-1.2758,55.92,90,100,7.96,GB,2024-05-11 02:00:11
250,Krasnozerskoye,53.9828,79.2374,54.5,46,98,7.0,RU,2024-05-11 02:00:11
251,Abepura,-2.6333,140.5833,83.21,79,20,2.3,ID,2024-05-11 02:00:11
252,Guymon,36.6828,-101.4816,61.2,43,61,7.02,US,2024-05-11 02:00:11
253,Qamdo,31.1667,97.2333,39.42,65,100,3.11,CN,2024-05-11 02:00:11
254,Enewetak,11.3474,162.3373,81.3,74,100,17.4,MH,2024-05-11 02:00:11
255,Port Elizabeth,-33.918,25.5701,63.1,78,0,23.02,ZA,2024-05-11 02:00:11
256,Ocampo,21.65,-101.5,76.17,25,72,16.53,MX,2024-05-11 02:00:11
257,Kotovo,50.3211,44.8012,42.15,52,82,9.8,RU,2024-05-11 02:00:11
258,Murzuq,25.9155,13.9184,66.97,31,0,10.58,LY,2024-05-11 02:00:11
259,Weno,7.4515,151.8468,87.75,79,40,9.22,FM,2024-05-11 02:00:12
260,Manokwari,-0.8667,134.0833,81.91,80,100,4.61,ID,2024-05-11 02:00:12
261,Chita,52.0333,113.55,42.69,65,40,15.66,RU,2024-05-11 02:00:12
262,Kushiro,42.975,144.3747,59.95,47,75,13.8,JP,2024-05-11 02:00:12
263,Kununurra,-15.7667,128.7333,85.98,51,6,12.66,AU,2024-05-11 02:00:12
264,Emerald,-23.5333,148.1667,79.34,52,20,10.94,AU,2024-05-11 02:00:12
265,Kidal,18.4411,1.4078,87.82,8,0,11.14,ML,2024-05-11 02:00:13
266,Khujner,23.7833,76.6,89.87,32,1,4.61,IN,2024-05-11 02:00:13
267,Ca Mau,9.1769,105.15,90.46,57,99,6.82,VN,2024-05-11 02:00:13
268,Pahrump,36.2083,-115.9839,73.44,27,83,1.01,US,2024-05-11 02:00:13
269,Katsuura,35.1333,140.3,68.95,68,80,19.01,JP,2024-05-11 01:57:07
270,Pastavy,55.1168,26.8326,32.02,95,15,8.52,BY,2024-05-11 02:00:13
271,Tarawa,1.419,172.984,89.69,74,20,9.22,KI,2024-05-11 02:00:13
272,Canada De Gomez,-32.8164,-61.3949,52.05,74,100,6.29,AR,2024-05-11 02:00:13
273,Horta,38.5333,-28.6333,64.02,94,98,10.0,PT,2024-05-11 02:00:13
274,Zaozersk,69.4005,32.4476,32.14,94,100,10.02,RU,2024-05-11 02:00:13
275,Yaren,-0.5472,166.916,84.7,66,23,7.45,NR,2024-05-11 02:00:14
276,Alafaya,28.5641,-81.2114,86.09,62,20,11.5,US,2024-05-11 01:59:17
277,Campo Maior,-4.8278,-42.1686,75.61,91,98,2.84,BR,2024-05-11 02:00:14
278,Puerto Baquerizo Moreno,-0.9,-89.6,73.76,88,89,7.23,EC,2024-05-11 02:00:14
279,Xinyuan,37.3,99.0,39.87,61,11,0.76,CN,2024-05-11 02:00:14
280,Severo-Yeniseyskiy,60.3725,93.0408,47.57,79,99,3.0,RU,2024-05-11 02:00:15
281,Estherville,43.4016,-94.8328,63.91,56,4,7.74,US,2024-05-11 02:00:15
282,Acajutla,13.5928,-89.8275,84.33,71,86,2.66,SV,2024-05-11 02:00:15
283,Chonchi,-42.6128,-73.8092,38.41,95,12,0.81,CL,2024-05-11 02:00:15
284,Alice Springs,-23.7,133.8833,65.75,52,40,16.11,AU,2024-05-11 02:00:15
285,Peniche,39.3558,-9.3811,62.29,88,0,10.16,PT,2024-05-11 02:00:16
286,Bel Ombre,-4.6167,55.4167,82.24,83,40,8.05,SC,2024-05-11 02:00:16
287,Tazacorte,28.629,-17.9293,67.17,81,20,10.36,ES,2024-05-11 02:00:16
288,Calama,-22.4667,-68.9333,61.29,16,0,2.3,CL,2024-05-11 02:00:09
289,Taoudenni,22.6783,-3.9836,92.39,8,100,13.78,ML,2024-05-11 02:00:16
290,Petropavlovsk-Kamchatsky,53.0452,158.6483,41.59,95,75,8.95,RU,2024-05-11 02:00:16
291,Uzgen,40.7699,73.3007,59.29,90,100,1.99,KG,2024-05-11 02:00:16
292,Sarmiento,-45.5882,-69.07,38.82,77,100,1.5,AR,2024-05-11 01:56:34
293,Chumphon,10.3333,98.8333,81.95,79,97,3.29,TH,2024-05-11 02:00:16
294,Corfu,39.62,19.9197,64.18,82,75,2.3,GR,2024-05-11 02:00:17
295,Inhambane,-23.865,35.3833,71.35,89,0,7.83,MZ,2024-05-11 02:00:17
296,Bardsir,29.9227,56.5743,57.92,36,0,4.29,IR,2024-05-11 02:00:17
297,Cotonou,6.3654,2.4183,85.98,74,40,9.22,BJ,2024-05-11 02:00:17
298,Nagqu,31.5,92.0,34.92,12,50,7.45,CN,2024-05-11 02:00:17
299,Saldanha,-33.0117,17.9442,50.05,77,66,4.47,ZA,2024-05-11 02:00:17
300,Isafjordur,66.0755,-23.124,36.99,95,100,7.14,IS,2024-05-11 02:00:18
301,Naval,11.5606,124.3975,87.08,63,100,6.04,PH,2024-05-11 02:00:18
302,Cabinda,-5.55,12.2,80.74,100,75,3.44,AO,2024-05-11 02:00:18
303,Hilo,19.7297,-155.09,79.29,89,100,12.66,US,2024-05-11 02:00:18
304,Ar Ruways,24.1103,52.7306,79.02,62,6,11.12,AE,2024-05-11 02:00:18
305,Laguna,38.421,-121.4238,89.78,19,0,10.36,US,2024-05-11 02:00:18
306,Kill Devil Hills,36.0307,-75.676,62.6,93,100,19.57,US,2024-05-11 02:00:19
307,Mar Del Plata,-38.0023,-57.5575,53.87,83,0,4.61,AR,2024-05-11 01:57:29
308,Luanda,-8.8368,13.2343,80.6,83,100,4.61,AO,2024-05-11 01:57:38
309,Port Alfred,-33.5906,26.891,62.42,75,45,22.41,ZA,2024-05-11 02:00:19
310,Lexington,37.9887,-84.4777,58.32,65,35,5.3,US,2024-05-11 01:56:36
311,Sakaiminato,35.55,133.2333,78.73,50,20,1.14,JP,2024-05-11 02:00:19
312,Lionel Town,17.8101,-77.2406,85.89,83,62,4.61,JM,2024-05-11 02:00:19
313,Poplar Bluff,36.757,-90.3929,67.73,77,78,3.2,US,2024-05-11 02:00:19
314,Fort Bragg,35.139,-79.006,69.94,56,20,9.22,US,2024-05-11 02:00:20
315,Port Lincoln,-34.7333,135.8667,62.17,66,63,5.32,AU,2024-05-11 02:00:20
316,Altos,-5.0381,-42.46,76.35,83,16,1.12,BR,2024-05-11 02:00:20
317,Vila Franca Do Campo,37.7167,-25.4333,64.89,99,99,4.83,PT,2024-05-11 02:00:20
318,Turgen,43.4006,77.5933,57.33,77,100,6.38,KZ,2024-05-11 02:00:20
319,Inari,68.906,27.0288,35.8,81,28,10.56,FI,2024-05-11 02:00:20
320,Sao Jose Da Coroa Grande,-8.8978,-35.1478,77.86,85,46,0.63,BR,2024-05-11 02:00:21
321,Giyani,-23.3025,30.7187,60.94,36,0,5.14,ZA,2024-05-11 02:00:21
322,Bubaque,11.2833,-15.8333,79.75,79,65,8.03,GW,2024-05-11 02:00:21
323,Metkovic,43.0542,17.6483,57.67,77,0,5.03,HR,2024-05-11 02:00:21
324,Aldan,58.6031,125.3894,36.9,74,100,4.92,RU,2024-05-11 02:00:21
325,Baoro,5.6667,15.9667,72.0,73,96,2.08,CF,2024-05-11 02:00:21
326,Demre,36.2537,29.9777,58.53,80,86,4.12,TR,2024-05-11 02:00:22
327,Kakrala,27.9,79.2,88.39,36,2,5.73,IN,2024-05-11 02:00:22
328,Murwara,23.85,80.4,89.76,28,97,6.6,IN,2024-05-11 02:00:22
329,Laojunmiao,39.8333,97.7333,61.38,24,0,6.42,CN,2024-05-11 02:00:23
330,Kerman,30.2832,57.0788,53.46,43,0,0.0,IR,2024-05-11 02:00:23
331,Santana,-0.0583,-51.1817,82.58,83,0,3.44,BR,2024-05-11 01:57:14
332,Laur,15.5,121.15,89.28,55,62,3.11,PH,2024-05-11 02:00:23
333,Lompoc,34.6391,-120.4579,66.34,87,100,9.22,US,2024-05-11 02:00:23
334,Birao,10.2849,22.7882,77.23,19,91,2.71,CF,2024-05-11 02:00:24
335,Malvan,16.0667,73.4667,82.63,75,17,7.61,IN,2024-05-11 02:00:24
336,Novodvinsk,64.4165,40.8122,31.78,83,99,8.28,RU,2024-05-11 02:00:24
337,Airuk,7.2772,168.8203,83.48,72,99,5.53,MH,2024-05-11 02:00:24
338,Faridkot,30.6667,74.75,88.77,33,63,4.94,IN,2024-05-11 02:00:25
339,Nouadhibou,20.931,-17.0347,66.18,88,56,14.97,MR,2024-05-11 02:00:25
340,Usinsk,65.9939,57.5281,30.07,97,25,3.0,RU,2024-05-11 02:00:25
341,Labrador City,52.9463,-66.9114,40.91,48,20,3.44,CA,2024-05-11 02:00:26
342,Margate,51.3813,1.3862,54.9,93,100,3.0,GB,2024-05-11 02:00:26
343,Kingston,17.997,-76.7936,85.15,79,75,12.66,JM,2024-05-11 01:55:47
344,Vite,17.2833,74.55,84.18,50,4,3.67,IN,2024-05-11 02:00:26
345,Ola,59.5833,151.2833,38.14,78,43,3.47,RU,2024-05-11 02:00:27
346,Mweka,-4.85,21.5667,71.73,91,100,0.94,CD,2024-05-11 02:00:27
347,Edson,53.5835,-116.4356,73.54,16,0,17.27,CA,2024-05-11 02:00:27
348,Corcoran,36.098,-119.5604,88.61,22,2,7.0,US,2024-05-11 02:00:08
349,Hirara,24.8,125.2833,82.26,69,75,10.36,JP,2024-05-11 02:00:28
350,Yashkul',46.1711,45.3435,50.59,72,0,6.82,RU,2024-05-11 02:00:28
351,Aykhal,66.0,111.5,18.23,61,43,2.55,RU,2024-05-11 02:00:28
352,Madingou,-4.1536,13.55,75.04,97,99,2.8,CG,2024-05-11 01:56:59
353,Santa Ana De Yacuma,-13.75,-65.4333,78.57,78,49,4.63,BO,2024-05-11 02:00:29
354,Ippy,6.2679,21.2247,76.01,60,87,2.57,CF,2024-05-11 02:00:29
355,Franceville,-1.6333,13.5836,74.77,92,81,1.3,GA,2024-05-11 02:00:29
356,Arraial Do Cabo,-22.9661,-42.0278,74.46,87,37,8.3,BR,2024-05-11 02:00:29
357,Sault Ste. Marie,46.5168,-84.3333,53.89,65,0,5.75,CA,2024-05-11 01:57:46
358,Makanya,-4.3667,37.8333,66.13,95,58,3.36,TZ,2024-05-11 02:00:30
359,Waldsassen,50.005,12.3028,45.75,89,78,1.77,DE,2024-05-11 02:00:30
360,Portland,45.5234,-122.6762,89.64,29,20,8.05,US,2024-05-11 01:57:23
361,Miguel Esteban,39.5193,-3.1035,59.02,46,100,17.78,ES,2024-05-11 02:00:30
362,Imzouren,35.1463,-3.8497,63.68,77,0,8.05,MA,2024-05-11 02:00:30
363,Pacific Grove,36.6177,-121.9166,66.31,73,0,7.0,US,2024-05-11 02:00:05
364,San Patricio,28.017,-97.5169,83.12,85,45,10.65,US,2024-05-11 02:00:31
365,Newman,37.3138,-121.0208,87.26,33,0,4.0,US,2024-05-11 02:00:31
366,Vorkuta,67.5,64.0,17.11,92,93,5.01,RU,2024-05-11 02:00:31
367,Isangel,-19.55,169.2667,78.91,65,40,9.22,VU,2024-05-11 02:00:32
368,Midvagur,62.0511,-7.1939,49.03,100,100,9.22,FO,2024-05-11 02:00:32
369,Qom,34.6401,50.8764,66.36,32,0,1.07,IR,2024-05-11 02:00:33
370,Alaghsas,17.0187,8.0168,89.33,15,16,13.22,NE,2024-05-11 02:00:33
371,Sanctuary Point,-35.1114,150.629,60.33,95,100,10.92,AU,2024-05-11 02:00:33
372,Ulanhot,46.0833,122.0833,50.2,57,100,22.48,CN,2024-05-11 02:00:33
373,Colares,38.7992,-9.4469,61.99,82,0,11.01,PT,2024-05-11 02:00:34
374,San Luis,-33.295,-66.3356,46.81,61,72,11.39,AR,2024-05-11 02:00:34
375,Puerto San Jose,13.9256,-90.8244,84.83,70,100,4.74,GT,2024-05-11 02:00:34
376,Happy Valley-Goose Bay,53.3168,-60.3315,41.31,60,20,9.22,CA,2024-05-11 01:59:13
377,Mufulira,-12.5498,28.2407,62.2,73,60,3.83,ZM,2024-05-11 02:00:34
378,San Andres,12.5847,-81.7006,86.02,79,20,10.36,CO,2024-05-11 02:00:35
379,Quevedo,-1.0333,-79.45,76.57,96,98,2.04,EC,2024-05-11 01:57:41
380,Kruisfontein,-34.0033,24.7314,60.89,76,100,18.37,ZA,2024-05-11 02:00:35
381,Moncao,42.0789,-8.4808,63.5,94,21,2.13,PT,2024-05-11 02:00:35
382,Jayapura,-2.5333,140.7,83.59,69,92,5.28,ID,2024-05-11 02:00:09
383,Alo,7.4178,6.7371,77.41,92,100,3.49,NG,2024-05-11 02:00:35
384,Genhe,50.7833,121.5167,53.58,27,100,17.43,CN,2024-05-11 02:00:35
385,Broome,42.2506,-75.833,50.7,95,100,0.0,US,2024-05-11 02:00:35
386,Namibe,-15.1961,12.1522,70.7,83,0,4.81,AO,2024-05-11 02:00:36
387,Nadym,65.5333,72.5167,28.96,85,5,6.98,RU,2024-05-11 02:00:36
388,Mont-Dore,-22.2833,166.5833,80.58,99,82,12.64,NC,2024-05-11 02:00:36
389,Baro,8.6,6.4167,78.49,79,100,1.81,NG,2024-05-11 02:00:36
390,Betio Village,1.358,172.9211,89.64,76,29,11.01,KI,2024-05-11 02:00:36
391,Duki,30.1541,68.5728,78.31,33,32,0.89,PK,2024-05-11 02:00:36
392,Fortuna,40.5982,-124.1573,72.52,60,0,5.75,US,2024-05-11 01:59:45
393,Hithadhoo,-0.6,73.0833,84.83,76,99,10.74,MV,2024-05-11 02:00:36
394,Kenora,49.8167,-94.4337,56.37,50,40,8.05,CA,2024-05-11 02:00:36
395,Lawas,13.764,121.0566,89.94,56,60,14.34,PH,2024-05-11 02:00:36
396,Zouerate,22.7187,-12.4521,79.7,17,83,7.43,MR,2024-05-11 02:00:37
397,Vadso,70.0744,29.7487,34.68,80,100,10.36,NO,2024-05-11 02:00:37
398,Al Lagowa,11.4,29.1333,86.16,41,98,1.66,SD,2024-05-11 02:00:37
399,Smithers,54.7804,-127.1743,53.92,66,75,10.36,CA,2024-05-11 02:00:37
400,Launceston,-41.45,147.1667,61.16,77,40,8.05,AU,2024-05-11 02:00:37
401,Brookings,44.3114,-96.7984,62.6,50,0,10.36,US,2024-05-11 02:00:25
402,Sinabang,2.4803,96.3801,76.86,94,100,2.06,ID,2024-05-11 02:00:37
403,Ostersund,63.1792,14.6357,35.62,80,98,1.01,SE,2024-05-11 02:00:37
404,Revelstoke,50.9832,-118.2023,78.82,24,0,4.61,CA,2024-05-11 02:00:38
405,Rakvere,59.3464,26.3558,38.84,68,27,13.65,EE,2024-05-11 02:00:38
406,Villa Gesell,-37.2639,-56.973,49.05,61,100,6.64,AR,2024-05-11 02:00:08
407,Terrace,54.5163,-128.6035,63.21,76,75,4.61,CA,2024-05-11 02:00:38
408,Nsanje,-16.92,35.262,65.5,93,0,1.57,MW,2024-05-11 02:00:38
409,Hasaki,35.7333,140.8333,77.29,66,98,21.16,JP,2024-05-11 02:00:38
410,Kristiansund,63.1115,7.732,47.05,76,100,4.61,NO,2024-05-11 02:00:38
411,Mukalla,14.5425,49.1242,82.74,81,81,3.85,YE,2024-05-11 02:00:38
412,Sokhumi,43.0033,41.0153,61.88,56,100,5.44,GE,2024-05-11 01:58:34
413,Acarau,-2.8856,-40.12,78.58,87,60,7.81,BR,2024-05-11 01:59:02
414,Isfana,39.8386,69.5306,46.96,97,100,5.12,KG,2024-05-11 02:00:38
415,Bay Roberts,47.5999,-53.2648,35.33,96,100,8.99,CA,2024-05-11 02:00:39
416,Itoman,26.1247,127.6694,83.17,71,75,13.8,JP,2024-05-11 02:00:39
417,Sinop,41.7711,34.8709,48.99,92,100,3.67,TR,2024-05-11 02:00:39
418,Hobyo,5.3505,48.5268,83.05,82,96,12.62,SO,2024-05-11 02:00:39
419,Ndjole,-0.1783,10.7649,77.38,99,100,2.13,GA,2024-05-11 02:00:39
420,Darwin,-12.4611,130.8418,87.89,54,20,18.41,AU,2024-05-11 02:00:39
421,Marsh Harbour,26.5412,-77.0636,79.47,78,55,10.51,BS,2024-05-11 02:00:04
422,Puerto Aysen,-45.4,-72.7,26.37,98,31,2.04,CL,2024-05-11 01:59:33
423,Caucete,-31.6518,-68.2811,53.58,40,100,7.99,AR,2024-05-11 02:00:39
424,Nebbi,2.4783,31.0889,67.55,88,59,5.03,UG,2024-05-11 02:00:39
425,Barra De Santo Antonio,-9.4047,-35.5072,79.88,83,15,1.5,BR,2024-05-11 02:00:40
426,Howrah,22.5892,88.3103,82.4,94,40,5.75,IN,2024-05-11 02:00:40
427,Kolokani,13.5728,-8.0339,93.13,26,79,7.14,ML,2024-05-11 02:00:40
428,Mokhsogollokh,61.4681,128.9203,36.23,45,90,3.11,RU,2024-05-11 02:00:40
429,Saint-Joseph,-21.3667,55.6167,66.58,72,21,12.08,RE,2024-05-11 02:00:40
430,Tromso,69.6496,18.957,39.22,70,40,10.36,NO,2024-05-11 02:00:40
431,Kodinsk,58.6881,99.1844,57.33,42,33,6.44,RU,2024-05-11 02:00:40
432,Quelimane,-17.8786,36.8883,73.35,88,0,3.85,MZ,2024-05-11 02:00:40
433,Arkhangel'Sk,64.5401,40.5433,32.13,100,100,8.95,RU,2024-05-11 02:00:40
434,Kalabo,-14.97,22.6814,59.36,54,0,3.65,ZM,2024-05-11 02:00:40
435,Ciudad Lazaro Cardenas,17.9583,-102.2,75.25,73,66,3.74,MX,2024-05-11 02:00:41
436,Leava,-14.3,-178.1667,81.59,66,67,18.84,WF,2024-05-11 02:00:41
437,Illizi,26.4833,8.4667,66.0,18,1,5.48,DZ,2024-05-11 02:00:41
438,Sao Gabriel Da Cachoeira,-0.1303,-67.0892,73.0,99,83,2.89,BR,2024-05-11 02:00:41
439,Broken Hill,-31.95,141.4333,62.2,58,12,15.57,AU,2024-05-11 01:58:02
440,Malvik,63.4333,10.6833,43.5,76,100,5.75,NO,2024-05-11 02:00:41
441,Cockburn Town,21.4612,-71.1419,79.02,83,0,15.68,TC,2024-05-11 01:58:59
442,Quellon,-43.1167,-73.6167,43.7,80,6,3.27,CL,2024-05-11 01:56:57
443,Iskateley,67.6803,53.1512,19.02,91,38,5.99,RU,2024-05-11 02:00:41
444,San Carlos Del Zulia,9.0,-71.9135,81.05,81,84,2.91,VE,2024-05-11 02:00:41
445,Rio Grande,-32.035,-52.0986,62.76,91,100,7.81,BR,2024-05-11 01:58:02
446,Mtinko,-4.55,34.85,57.76,96,36,6.11,TZ,2024-05-11 02:00:42
447,Kapatagan,7.9003,123.7692,92.43,54,33,4.25,PH,2024-05-11 02:00:42
448,Obock,12.25,43.0833,75.6,83,26,7.23,DJ,2024-05-11 02:00:42
449,Kavaratti,10.5669,72.642,85.77,69,79,8.61,IN,2024-05-11 02:00:42
450,Karratha,-20.7377,116.8463,82.96,25,91,19.42,AU,2024-05-11 02:00:42
451,Aleksandrovskoye,44.7142,43.0008,44.67,95,63,6.15,RU,2024-05-11 02:00:42
452,Urangan,-25.3,152.9,77.2,75,0,8.01,AU,2024-05-11 02:00:42
453,Bakanas,44.8081,76.2772,64.4,56,100,20.15,KZ,2024-05-11 02:00:42
454,Mulanje,-16.0316,35.5,64.33,73,0,3.67,MW,2024-05-11 02:00:42
455,Berdigestyakh,62.0989,126.6992,38.14,44,100,4.07,RU,2024-05-11 02:00:42
456,Beya,53.0533,90.9139,69.66,39,100,4.63,RU,2024-05-11 02:00:42
457,Punto Fijo,11.6956,-70.1996,81.86,80,100,22.64,VE,2024-05-11 02:00:42
458,Puerto Bolivar,-3.2667,-79.9833,76.23,89,94,0.6,EC,2024-05-11 02:00:43
459,Antsiranana,-12.2787,49.2917,78.17,65,81,13.04,MG,2024-05-11 02:00:43
460,Imbituba,-28.24,-48.6703,72.86,95,100,3.38,BR,2024-05-11 01:56:39
461,Nuevitas,21.5453,-77.2644,78.6,80,100,8.55,CU,2024-05-11 02:00:43
462,Salinas,36.6777,-121.6555,72.41,64,0,10.36,US,2024-05-11 02:00:43
463,Godfrey,38.9556,-90.1868,64.81,67,0,4.61,US,2024-05-11 02:00:43
464,Auki,-8.7676,160.7034,82.96,81,93,3.94,SB,2024-05-11 02:00:43
465,Kulhudhuffushi,6.6221,73.07,84.43,73,100,1.41,MV,2024-05-11 02:00:43
466,Ancud,-41.8697,-73.8203,43.39,90,72,6.89,CL,2024-05-11 01:57:53
467,Boende,-0.2167,20.8667,71.56,96,58,1.9,CD,2024-05-11 02:00:43
468,Puerto Santa,-8.9906,-78.6456,65.52,91,66,7.9,PE,2024-05-11 02:00:44
469,Baukau,51.5526,7.2042,58.48,85,94,5.68,DE,2024-05-11 02:00:44
470,Medyn',54.9692,35.8586,39.92,93,100,9.28,RU,2024-05-11 02:00:44
471,San Luis De La Loma,17.2706,-100.8939,77.5,73,92,2.66,MX,2024-05-11 02:00:44
472,Tan-Tan,28.438,-11.1032,61.66,97,62,10.31,MA,2024-05-11 02:00:44
473,La Ronge,55.1001,-105.2842,75.45,22,75,10.36,CA,2024-05-11 02:00:44
474,Danielskuil,-28.1887,23.5395,57.49,41,0,4.16,ZA,2024-05-11 02:00:44
475,Kavieng,-2.5744,150.7967,85.01,70,96,2.95,PG,2024-05-11 02:00:44
476,Pudasjarvi,65.3833,26.9167,33.15,87,97,11.3,FI,2024-05-11 02:00:44
477,Qingyuan,23.7,113.0333,82.38,83,99,3.65,CN,2024-05-11 02:00:44
478,Fomboni,-12.28,43.7425,81.0,71,100,6.85,KM,2024-05-11 02:00:45
479,Mount Isa,-20.7333,139.5,78.57,57,0,11.5,AU,2024-05-11 02:00:45
480,Colonia Menno,-22.3667,-59.8167,73.2,62,77,8.08,PY,2024-05-11 02:00:45
481,Mandal,25.45,74.5667,88.09,36,2,12.95,IN,2024-05-11 02:00:45
482,Pesqueira,-8.3578,-36.6964,64.27,98,24,3.89,BR,2024-05-11 02:00:45
483,Ovalle,-30.5983,-71.2003,54.18,75,100,1.39,CL,2024-05-11 02:00:07
484,Torbat-E Heydariyeh,35.274,59.2195,55.0,61,0,3.2,IR,2024-05-11 02:00:45
485,Yuzhno-Kurilsk,44.0306,145.8556,46.38,76,92,8.72,RU,2024-05-11 02:00:45
486,Teguise,29.0605,-13.564,64.62,77,0,12.66,ES,2024-05-11 01:58:15
487,Lubang,13.8584,120.124,84.85,72,30,18.9,PH,2024-05-11 02:00:45
488,Santo Antonio Do Ica,-3.1022,-67.9397,73.94,98,12,3.74,BR,2024-05-11 02:00:45
489,Lerwick,60.1545,-1.1494,46.4,83,78,7.38,GB,2024-05-11 02:00:46
490,Galveston,29.3669,-94.9669,82.96,72,98,10.45,US,2024-05-11 02:00:23
491,Les Ponts-De-Ce,47.4231,-0.5248,60.04,80,7,7.07,FR,2024-05-11 02:00:46
492,Khonsa,27.0167,95.5667,75.72,68,54,2.91,IN,2024-05-11 02:00:46
493,Birobidzhan,48.8,132.95,47.82,61,100,14.81,RU,2024-05-11 02:00:46
494,Wuwei,37.9281,102.6414,65.53,27,0,1.66,CN,2024-05-11 02:00:46
495,Sairang,23.8,92.6667,70.39,94,75,3.44,IN,2024-05-11 02:00:46
496,Whakatane,-37.9585,176.9854,60.89,63,36,5.99,NZ,2024-05-11 02:00:47
497,Ambodifotatra,-16.9833,49.85,78.37,72,11,15.68,MG,2024-05-11 02:00:47
498,Kapa'A,22.0752,-159.319,77.18,73,98,4.0,US,2024-05-11 02:00:47
499,Dellys,36.9172,3.9131,60.21,76,2,6.89,DZ,2024-05-11 02:00:47
500,Caleta De Carquin,-11.0925,-77.6267,66.56,88,33,10.96,PE,2024-05-11 02:00:47
501,Dalbandin,28.8947,64.4101,77.54,16,0,7.94,PK,2024-05-11 02:00:47
502,Revda,56.801,59.9303,37.45,66,65,16.89,RU,2024-05-11 02:00:47
503,N'Zeto,-7.2312,12.8666,77.86,93,79,6.73,AO,2024-05-11 02:00:47
504,Kerikeri,-35.2268,173.9474,62.6,43,6,5.37,NZ,2024-05-11 02:00:48
505,Egilsstadir,65.2653,-14.3948,40.91,93,75,5.75,IS,2024-05-11 02:00:48
506,Praia Da Vitoria,38.7333,-27.0667,62.76,94,0,6.89,PT,2024-05-11 02:00:48
507,Fort Mcmurray,56.7268,-111.381,81.99,18,40,19.57,CA,2024-05-11 02:00:14
508,Carnarvon,-24.8667,113.6333,79.79,42,0,12.19,AU,2024-05-11 02:00:48
509,Dhuusamarreeb,5.535,46.3861,83.35,65,73,6.31,SO,2024-05-11 02:00:48
510,Peranampattu,12.9333,78.7167,81.54,69,94,0.92,IN,2024-05-11 02:00:48
511,Ta`U,-14.2336,-169.5144,81.55,81,100,10.67,AS,2024-05-11 02:00:48
512,Kuala Belait,4.5833,114.1833,78.96,76,0,2.21,BN,2024-05-11 02:00:11
513,Bourgoin-Jallieu,45.5833,5.2833,60.85,83,15,3.69,FR,2024-05-11 02:00:48
514,Alindao,5.0267,21.2088,74.86,79,70,4.47,CF,2024-05-11 02:00:49
515,Ma'Rib,15.4591,45.3253,77.81,53,85,4.0,YE,2024-05-11 02:00:49
516,Penzance,50.1186,-5.5371,54.75,85,60,11.7,GB,2024-05-11 02:00:49
517,Misratah,32.3754,15.0925,64.18,79,0,9.62,LY,2024-05-11 02:00:49
518,Ceeldheer,3.8488,47.1806,80.92,83,42,8.05,SO,2024-05-11 02:00:49
519,Fauske,67.2588,15.3918,39.24,84,95,5.46,NO,2024-05-11 02:00:49
520,Tobruk,32.0836,23.9764,63.57,84,0,16.04,LY,2024-05-11 02:00:49
521,Bangassou,4.7413,22.8184,72.12,84,76,2.46,CF,2024-05-11 02:00:49
522,Chynadiyovo,48.4818,22.8217,49.26,80,42,6.67,UA,2024-05-11 02:00:49
523,Oamaru,-45.0784,170.9801,47.73,55,0,3.15,NZ,2024-05-11 02:00:49
524,Matoury,4.8483,-52.3317,78.76,94,75,6.91,GF,2024-05-11 02:00:49
525,Mundri,-6.9558,111.71,84.29,74,14,8.84,ID,2024-05-11 02:00:49
526,Marsabit,2.3284,37.9899,67.64,65,45,18.95,KE,2024-05-11 02:00:50
527,Nyrob,60.733,56.7202,28.92,90,79,4.18,RU,2024-05-11 02:00:50
528,Dilling,12.05,29.65,84.15,42,28,5.1,SD,2024-05-11 02:00:50
529,Bikenibeu Village,1.3673,173.1241,89.56,74,20,9.22,KI,2024-05-11 02:00:50
530,Morant Bay,17.8815,-76.4093,85.62,87,67,5.82,JM,2024-05-11 02:00:50
531,Ingeniero Jacobacci,-41.3427,-69.5448,34.95,62,10,4.76,AR,2024-05-11 02:00:50
532,Harper,4.375,-7.7169,78.46,91,100,1.77,LR,2024-05-11 02:00:50
533,Panjab,34.388,67.0233,43.7,65,0,5.46,AF,2024-05-11 02:00:50
534,Mbandaka,0.0487,18.2603,72.73,88,91,2.84,CD,2024-05-11 02:00:50
535,Touros,-5.1989,-35.4608,76.82,82,33,8.68,BR,2024-05-11 02:00:29
536,Haffouz,35.6324,9.6762,60.03,69,2,1.81,TN,2024-05-11 02:00:50
537,Pokrovsk,48.282,37.1758,43.79,51,0,7.49,UA,2024-05-11 01:59:40
538,Wuxue,29.8506,115.5525,77.13,82,100,3.74,CN,2024-05-11 02:00:51
539,Agdam,39.991,46.9274,53.85,89,4,2.57,AZ,2024-05-11 01:55:58
540,Taroa,8.7058,171.2275,78.35,93,100,17.22,MH,2024-05-11 02:00:51
541,Heihe,50.2441,127.4902,51.46,74,100,20.11,CN,2024-05-11 02:00:51
542,Shitanjing,39.2342,106.3439,64.44,18,0,9.64,CN,2024-05-11 02:00:51
